prefecture,city,number,address,name,lat,long
埼玉県,さいたま市,01-02,北区別所町４２番地１,市立大宮別所小学校西側フェンス,35.9551726,139.597547
埼玉県,さいたま市,01-02,北区別所町３４番地,神明公園北側フェンス,35.9547035,139.598776
埼玉県,さいたま市,01-02,北区別所町６７番地,庚申公園南側フェンス,35.9581389,139.5978584
埼玉県,さいたま市,01-02,北区別所町７５番地,東公園西側フェンス,35.9603852,139.5964274
埼玉県,さいたま市,01-02,北区別所町９５番地,別所公園南側フェンス,35.9573691,139.595494
埼玉県,さいたま市,01-02,北区別所町１１９番地,小山公園北側フェンス,35.9573691,139.595494
埼玉県,さいたま市,01-02,北区別所町１０００番地３８,別所北公園南側フェンス,35.9545478,139.5935924
埼玉県,さいたま市,01-02,北区別所町１１２５番地２０,滝宮公園南側フェンス,35.9590228,139.5998152
埼玉県,さいたま市,01-02,北区吉野町２丁目２５１番地５,吉野緑地公園北側,35.9612697,139.6107865
埼玉県,さいたま市,01-02,北区吉野町１丁目４０８番地１,浅間公園北側フェンス,35.9531601,139.6133356
埼玉県,さいたま市,01-02,北区吉野町２丁目１８番地７,吉野団地公園東側フェンス,35.9612697,139.6107865
埼玉県,さいたま市,01-02,北区吉野町２丁目２５番地１,諏訪公園東側フェンス,35.9612697,139.6107865
埼玉県,さいたま市,01-02,北区吉野町２丁目２１３番地,つつじヶ丘公園西側フェンス,35.9612697,139.6107865
埼玉県,さいたま市,01-02,北区吉野町２丁目１９５番地１,宮原コミュニティセンター南側駐車場入口付近,35.9585662,139.600959
埼玉県,さいたま市,01-02,北区吉野町２丁目２３６番地１,神山公園北側フェンス,35.9622867,139.6093726
埼玉県,さいたま市,01-02,北区今羽町５９６番地,市立泰平中学校西側フェンス,35.9484689,139.6262764
埼玉県,さいたま市,01-02,北区今羽町４７７番地２４,今羽町団地中央公園西側入口横フェンス,35.9482819,139.6239722
埼玉県,さいたま市,01-02,北区今羽町２４４番地２,市営今羽住宅内広場西側フェンス,35.9544098,139.6216981
埼玉県,さいたま市,01-02,北区今羽町４７７番地３２,今羽町団地西公園南側フェンス,35.9482819,139.6239722
埼玉県,さいたま市,01-02,北区今羽町６２８番地,市立泰平小学校西側フェンス,35.9527117,139.6235333
埼玉県,さいたま市,01-02,北区今羽町１１４番地２,今羽中公園東側,35.951883,139.6218292
埼玉県,さいたま市,01-02,北区今羽町４７７番地３,リ・コンフェリーレ今羽町南 中島都市下水路北側,35.9482819,139.6239722
埼玉県,さいたま市,01-02,北区宮原町４丁目６６番地４,宮原公民館東側,35.9469755,139.6110689
埼玉県,さいたま市,01-02,北区宮原町４丁目４２番地,松原公園南側フェンス,35.9452737,139.6107865
埼玉県,さいたま市,01-02,北区吉野町１丁目８番地５,前谷公園西側,35.9476502,139.618655
埼玉県,さいたま市,01-02,北区吉野町１丁目４２番地,仲原公園西側フェンス,35.9531601,139.6133356
埼玉県,さいたま市,01-02,北区吉野町１丁目３７９番地１,吉野公園西側フェンス,35.9528315,139.6123157
埼玉県,さいたま市,01-02,北区吉野町１丁目３８５番地１,夷屋公園東側フェンス,35.9531601,139.6133356
埼玉県,さいたま市,01-02,北区吉野町１丁目３７９番地１,吉野公園南側フェンス,35.9528315,139.6123157
埼玉県,さいたま市,01-02,北区宮原町４丁目４２番地,松原公園北側植込み,35.9452737,139.6107865
埼玉県,さいたま市,01-02,北区宮原町４丁目１０２番地６,市立宮原小学校西側フェンス,35.949326,139.605818
埼玉県,さいたま市,01-02,北区宮原町４丁目１１５番地,鍛治公園東側フェンス,35.9452737,139.6107865
埼玉県,さいたま市,01-02,北区宮原町４丁目１２１番地,領家北公園北側 入口右側フェンス,35.9452737,139.6107865
埼玉県,さいたま市,01-02,北区宮原町４丁目１２９番地,市立宮原中学校北側フェンス,35.9452737,139.6107865
埼玉県,さいたま市,01-02,北区宮原町４丁目９１番地,領家中央公園南側フェンス,35.9452737,139.6107865
埼玉県,さいたま市,01-02,北区宮原町４丁目１９番地,領家南公園東側フェンス,35.9452737,139.6107865
埼玉県,さいたま市,01-02,北区宮原町４丁目９８番地２,宮原４丁目公園東側入口右側フェンス,35.9452737,139.6107865
埼玉県,さいたま市,01-02,北区奈良町１２５番地６,市立奈良保育園西側フェンス,35.9491032,139.5979903
埼玉県,さいたま市,01-02,北区奈良町１３６番地先,奈良町ＢＣ団地４号棟西向側フェンス,35.9501053,139.5973944
埼玉県,さいたま市,01-02,北区奈良町１３６番地５０,奈良町ＢＣ団地３号棟南側奈良公園フェンス,35.9501053,139.5973944
埼玉県,さいたま市,01-02,北区奈良町１６５番地３,奈良北公園北側フェンス,35.9480065,139.600591
埼玉県,さいたま市,01-02,北区奈良町１６２番地８,松本医院北側水路フェンス,35.9537561,139.594469
埼玉県,さいたま市,01-02,北区奈良町１３５番地３,市営奈良住宅集会所北側フェンス,35.9488127,139.5972395
埼玉県,さいたま市,01-02,北区奈良町１３４番地２,市営奈良住宅２号棟東側フェンス,35.9480065,139.600591
埼玉県,さいたま市,01-02,北区奈良町９１番地１,市立大宮北高等学校北側フェンス,35.9459749,139.6008619
埼玉県,さいたま市,01-02,北区奈良町７９番地７８,奈良団地第２公園東側 入口左側フェンス,35.9480065,139.600591
埼玉県,さいたま市,01-02,北区奈良町９１番地１,市立大宮北高等学校東側フェンス,35.9459749,139.6008619
埼玉県,さいたま市,01-02,北区奈良町９４番地２,奈良町自治会館東側フェンス,35.9479823,139.6015309
埼玉県,さいたま市,01-02,北区奈良町７９番地１３５,奈良団地第１公園西側フェンス,35.9480065,139.600591
埼玉県,さいたま市,01-02,北区奈良町９１番地１,市立大宮北高等学校南側フェンス,35.9459749,139.6008619
埼玉県,さいたま市,01-02,北区奈良町３０番地１０,さいたま市ふれあい広場西側フェンス,35.9465943,139.6040453
埼玉県,さいたま市,01-02,北区日進町３丁目２０９番地,市立日進北小学校西側正門横フェンス,35.9368576,139.6040204
埼玉県,さいたま市,01-02,北区日進町３丁目２７８番地２,西谷第２公園内北側フェンス,35.9357783,139.6002642
埼玉県,さいたま市,01-02,北区日進町３丁目２０９番地,市立日進北小学校北側フェンス,35.9368576,139.6040204
埼玉県,さいたま市,01-02,北区日進町３丁目３８９番地,住宅東向側フェンス,35.9373498,139.5989449
埼玉県,さいたま市,01-02,北区日進町３丁目４７８番地２,宇賀神会計事務所南側畑,35.9382096,139.6064113
埼玉県,さいたま市,01-02,北区日進町３丁目６９８番地,県営大宮日進あかしや団地東側フェンス,35.9397384,139.6038987
埼玉県,さいたま市,01-02,北区日進町３丁目７１７番地,県営大宮日進さつき団地南側フェンス,35.9392846,139.6052506
埼玉県,さいたま市,01-02,北区日進町２丁目１９１５番地４,産業振興会館北側入口付近,35.9330466,139.6090739
埼玉県,さいたま市,01-02,北区日進町３丁目３２番地８,西谷第１公園西側入口右側フェンス,35.9334951,139.6015608
埼玉県,さいたま市,01-02,北区日進町２丁目１１２５番地,日進駅第１自転車駐車場 北側フェンス,35.931765,139.6063059
埼玉県,さいたま市,01-02,北区日進町３丁目２０９番地,市立日進北小学校南側フェンス,35.9368576,139.6040204
埼玉県,さいたま市,01-02,北区日進町２丁目１４６４番地,番場公園東側フェンス,35.9294995,139.6056885
埼玉県,さいたま市,01-02,北区日進町２丁目１４９９番地,上加自然の森北西角木柵,35.9294995,139.6056885
埼玉県,さいたま市,01-02,北区日進町２丁目１４６４番地,番場公園東側フェンス（花と木の広場入口付近）,35.9294995,139.6056885
埼玉県,さいたま市,01-02,北区日進町２丁目１９１６番地２他,うねうね公園北側入口付近 鉄塔横,35.9351944,139.6086981
埼玉県,さいたま市,01-02,北区宮原町３丁目２８２番地,宮原町３丁目自治会館南側入口横フェンス,35.9389377,139.6117416
埼玉県,さいたま市,01-02,北区宮原町３丁目３６４番地１ 北中ビル南側,宮原駅東口公園,35.9412565,139.6095425
埼玉県,さいたま市,01-02,北区宮原町３丁目,宮原駅西口ロータリー植込み,35.9375883,139.6101492
埼玉県,さいたま市,01-02,北区宮原町３丁目５４７番地付近,宮原ロイヤルハイツ東側 水路フェンス,35.9399216,139.6081001
埼玉県,さいたま市,01-02,北区東大成町２丁目７４１番地,ロイヤルシティ北側 東大成2丁目北公園北側フェンス,35.9339575,139.6127392
埼玉県,さいたま市,01-02,北区宮原町３丁目４３９番地２,住宅西側水路フェンス,35.9422147,139.6070626
埼玉県,さいたま市,01-02,北区宮原町３丁目５８１番地先,サンパーク宮原西№４ 西側水路フェンス,35.9375883,139.6101492
埼玉県,さいたま市,01-02,北区宮原町２丁目３９番地,宮原町２丁目自治会館西側入口横フェンス,35.941247,139.614986
埼玉県,さいたま市,01-02,北区宮原町２丁目３９番地,宮原町２丁目自治会館東側入口横フェンス,35.941247,139.614986
埼玉県,さいたま市,01-02,北区宮原町２丁目７４番地,宮原南公園東側フェンス,35.9404783,139.6158849
埼玉県,さいたま市,01-02,北区宮原町２丁目７９番地,宮原公園北側フェンス,35.9404783,139.6158849
埼玉県,さいたま市,01-02,北区宮原町２丁目９８番地,原殿公園南側フェンス,35.946238,139.6175618
埼玉県,さいたま市,01-02,北区宮原町２丁目１２５番地,東宮原ぼうさい広場南側,35.9404783,139.6158849
埼玉県,さいたま市,01-02,北区宮原町２丁目９８番地,原殿公園北側フェンス,35.946238,139.6175618
埼玉県,さいたま市,01-02,北区宮原町２丁目１２５番地,東宮原ぼうさい広場西側駐車場入口付近,35.9404783,139.6158849
埼玉県,さいたま市,01-02,北区本郷町１番地,市立大砂土小学校東側フェンス,35.9380023,139.6270102
埼玉県,さいたま市,01-02,北区本郷町１番地,市立大砂土小学校北側東寄りフェンス,35.9380023,139.6270102
埼玉県,さいたま市,01-02,北区本郷町１番地,市立大砂土小学校西側フェンス,35.9380023,139.6270102
埼玉県,さいたま市,01-02,北区本郷町９２番地１,本郷第６公園北側フェンス,35.943972,139.6273579
埼玉県,さいたま市,01-02,北区本郷町２８６番地,大宮災害対策庫北側フェンス,35.943972,139.6273579
埼玉県,さいたま市,01-02,北区本郷町６５５番地１,本郷第４公園南側フェンス,35.943972,139.6273579
埼玉県,さいたま市,01-02,北区本郷町６５５番地１,本郷第４公園西側フェンス,35.943972,139.6273579
埼玉県,さいたま市,01-02,北区本郷町９２番地１,本郷第６公園南側フェンス,35.943972,139.6273579
埼玉県,さいたま市,01-02,北区本郷町１１２２番地,本郷会館入口東側,35.9441679,139.6263241
埼玉県,さいたま市,01-02,北区本郷町８９０番地１,本郷第１公園北側入口左側フェンス,35.943972,139.6273579
埼玉県,さいたま市,01-02,北区本郷町１１５７番地１,本郷第５公園北側入口左側フェンス,35.943972,139.6273579
埼玉県,さいたま市,01-02,北区本郷町１２５７番地１,本郷第３公園東側フェンス,35.943972,139.6273579
埼玉県,さいたま市,01-02,北区本郷町１４５７番地,本郷第２公園東側フェンス,35.943972,139.6273579
埼玉県,さいたま市,01-02,北区本郷町１４５７番地,本郷第２公園西側フェンス,35.943972,139.6273579
埼玉県,さいたま市,01-02,北区本郷町１１５７番地,本郷第５公園南側フェンス,35.943972,139.6273579
埼玉県,さいたま市,01-02,北区見沼３丁目７５番地,市立土呂中学校東側正門左側フェンス,35.9393486,139.6370553
埼玉県,さいたま市,01-02,北区土呂町２丁目１５番地,神明西公園西側フェンス,35.9304322,139.6362829
埼玉県,さいたま市,01-02,北区土呂町２丁目２４番地１,彩の国さいたま人づくり広域連合 自治人材開発センター入口左側フェンス,35.9291614,139.6331145
埼玉県,さいたま市,01-02,北区土呂町２丁目４２番地,大宮弁天公園西側フェンス,35.9304322,139.6362829
埼玉県,さいたま市,01-02,北区土呂町２丁目８３番地２,見沼公園西側フェンス,35.9304322,139.6362829
埼玉県,さいたま市,01-02,北区見沼３丁目７５番地,市立土呂中学校西側フェンス,35.9393486,139.6370553
埼玉県,さいたま市,01-02,北区土呂町２丁目４９番地,見晴公園西側,35.9304322,139.6362829
埼玉県,さいたま市,01-02,北区見沼２丁目94番地,見沼グリーンセンター南側,35.9321012,139.6381158
埼玉県,さいたま市,01-02,北区土呂町３５２番地,市立植竹中学校西側正門横フェンス,35.9346289,139.6275608
埼玉県,さいたま市,01-02,北区土呂町３５２番地,市立植竹中学校東側フェンス,35.9346289,139.6275608
埼玉県,さいたま市,01-02,北区土呂町１丁目１３番地,富士見公園北側,35.9312357,139.6298321
埼玉県,さいたま市,01-02,北区土呂町１丁目４２番地,土呂公園西側フェンス,35.9352307,139.6311827
埼玉県,さいたま市,01-02,北区土呂町１丁目４２番地,土呂公園東側フェンス,35.9352307,139.6311827
埼玉県,さいたま市,01-02,北区土呂町３５２番地,市立植竹中学校南側フェンス,35.9346289,139.6275608
埼玉県,さいたま市,01-02,北区土呂町１丁目３６番地１６,土呂西公園東側入口左側フェンス,35.9352307,139.6311827
埼玉県,さいたま市,01-02,北区本郷町１５６２番地１,本郷第７公園南側フェンス,35.943972,139.6273579
埼玉県,さいたま市,01-02,北区宮原町１丁目８５２番地１,プラザノース正面北区役所側入口付近,35.9315024,139.620187
埼玉県,さいたま市,01-02,北区宮原町１丁目８７番地４,宮原町１丁目南公園南側入口横フェンス,35.933672,139.6193195
埼玉県,さいたま市,01-02,北区宮原町１丁目５５５番地１,中島東公園南側フェンス,35.9380172,139.6216397
埼玉県,さいたま市,01-02,北区宮原町１丁目４２８番地,住宅東側水路フェンス,35.9369547,139.6200312
埼玉県,さいたま市,01-02,北区宮原町１丁目２４６番地,宮原１丁目子供公園北側フェンス,35.9356818,139.6209837
埼玉県,さいたま市,01-02,北区宮原町１丁目８５２番地１,プラザノース東側（図書館側）入口付近,35.9315024,139.620187
埼玉県,さいたま市,01-02,北区宮原町１丁目１８４番地２４,加茂宮公園西側フェンス,35.9352825,139.6242328
埼玉県,さいたま市,01-02,北区宮原町１丁目２２４番地先,ＪＡさいたま あぐりセンター駐車場西側水路フェンス,35.9359403,139.6205188
埼玉県,さいたま市,01-02,北区東大成町２丁目１２番地,市立東大成小学校東側正門横フェンス,35.9277938,139.6184342
埼玉県,さいたま市,01-02,北区東大成町２丁目１２番地,市立東大成小学校北側フェンス,35.9277938,139.6184342
埼玉県,さいたま市,01-02,北区東大成町２丁目１２番地,市立東大成小学校西側フェンス,35.9277938,139.6184342
埼玉県,さいたま市,01-02,北区東大成町２丁目445番地１,水道総合センター東側,35.9291073,139.6198285
埼玉県,さいたま市,01-02,北区東大成町２丁目７３６番地１先,陶芸会館北向側駐車場フェンス,35.9345238,139.6134979
埼玉県,さいたま市,01-02,北区東大成町２丁目３９０番地,砂久保遊園地西側入口横フェンス,35.9287463,139.6171894
埼玉県,さいたま市,01-02,北区東大成町２丁目４０４番地２,東大成２丁目公園南側入口横フェンス,35.9277938,139.6184342
埼玉県,さいたま市,01-02,北区日進町２丁目６３５番地,松原自治会館西側フェンス,35.9300824,139.6092165
埼玉県,さいたま市,01-02,北区日進町２丁目１１１番地１,松原東公園北側入口横水路フェンス,35.9294995,139.6056885
埼玉県,さいたま市,01-02,北区日進町２丁目２０３番地,松原第１公園西側フェンス,35.9312317,139.6097619
埼玉県,さいたま市,01-02,北区日進町２丁目６３４番地,松原中央公園東側フェンス,35.9294995,139.6056885
埼玉県,さいたま市,01-02,北区日進町２丁目７０２番地,松原第３公園南側フェンス,35.9311693,139.6089292
埼玉県,さいたま市,01-02,北区日進町２丁目１０７２番地,ＪＲ大宮日進第２アパート１号棟北側フェンス,35.9294666,139.6054496
埼玉県,さいたま市,01-02,北区日進町２丁目１０７２番地,ＪＲ大宮日進第２アパート２号棟南側フェンス,35.9294666,139.6054496
埼玉県,さいたま市,01-02,北区日進町２丁目９１８番地,市立日進小学校西側正門横フェンス,35.925202,139.6075815
埼玉県,さいたま市,01-02,北区日進町２丁目４８０番地,埼玉大学附属特別支援学校北側フェンス,35.9258706,139.6096553
埼玉県,さいたま市,01-02,北区大成町４丁目７１２番地,㈲大成精密西向側雑木林,35.9288333,139.6137955
埼玉県,さいたま市,01-02,北区日進町２丁目４８０番地,埼玉大学附属特別支援学校西側フェンス,35.9258706,139.6096553
埼玉県,さいたま市,01-02,北区日進町２丁目９１８番地,市立日進小学校北側フェンス,35.925202,139.6075815
埼玉県,さいたま市,01-02,北区日進町２丁目９１８番地,市立日進小学校南側フェンス,35.925202,139.6075815
埼玉県,さいたま市,01-02,北区日進町２丁目１１８５番地,上加公園北側フェンス,35.9294995,139.6056885
埼玉県,さいたま市,01-02,北区大成町４丁目７１４番地３,大成４丁目西公園東側フェンス,35.9289456,139.6142391
埼玉県,さいたま市,01-02,北区日進町１丁目５５１番地,日進町１丁目自治会館西側,35.9235307,139.6043126
埼玉県,さいたま市,01-02,北区日進町１丁目５５１番地,日進町１丁目自治会館南側,35.9235307,139.6043126
埼玉県,さいたま市,01-02,北区日進町１丁目７０１番地１,旧日進学校給食センター南側正門横フェンス,35.9253628,139.5983196
埼玉県,さいたま市,01-02,北区日進町１丁目７０１番地１,旧日進学校給食センター東側フェンス,35.9253628,139.5983196
埼玉県,さいたま市,01-02,北区日進町１丁目７５６番地１,下加公園北側フェンス,35.9199536,139.6018654
埼玉県,さいたま市,01-02,北区日進町１丁目３１１番地,日進公園北側,35.9199536,139.6018654
埼玉県,さいたま市,01-02,北区日進町１丁目８００番地１,市立日進西保育園西側フェンス,35.9262878,139.6042545
埼玉県,さいたま市,01-02,北区日進町１丁目３１２番地２,日進公園コミュニティセンター南側フェンス,35.9217613,139.6050115
埼玉県,さいたま市,01-02,北区日進町１丁目４０番地２,農業・食品産業技術総合研究機構南側フェンス,35.9184736,139.6013687
埼玉県,さいたま市,01-02,北区日進町１丁目１０７番地,朝日カーメンテナンス㈱東側フェンス,35.9191229,139.5964853
埼玉県,さいたま市,01-02,北区日進町１丁目４０番地１２,公務員宿舎ＲＴ棟南側フェンス,35.9184736,139.6013687
埼玉県,さいたま市,01-02,北区日進町１丁目４０番地１２,公務員宿舎ＲＪ棟南東側,35.9184736,139.6013687
埼玉県,さいたま市,01-02,北区日進町１丁目４０番地２,農業・食品産業技術総合研究機構北側フェンス,35.9184736,139.6013687
埼玉県,さいたま市,01-02,北区日進町１丁目４０番地２,農業・食品産業技術総合研究機構東側フェンス,35.9184736,139.6013687
埼玉県,さいたま市,01-02,北区櫛引町２丁目５０３番地,市立日進中学校西側フェンス,35.9218566,139.6100798
埼玉県,さいたま市,01-02,北区大成町４丁目２２８番地２,大成４丁目公園南側フェンス,35.9197756,139.612562
埼玉県,さいたま市,01-02,北区大成町４丁目２６５番地,県営大宮稲荷下住宅２号棟西側フェンス,35.9209204,139.6124581
埼玉県,さいたま市,01-02,北区大成町４丁目４１４番地,稲荷第２公園西側フェンス,35.9254194,139.6139729
埼玉県,さいたま市,01-02,北区櫛引町２丁目５０３番地,市立日進中学校東側フェンス,35.9218566,139.6100798
埼玉県,さいたま市,01-02,北区櫛引町２丁目８１７番地,大宮三島公園北側フェンス,35.9191007,139.6082375
埼玉県,さいたま市,01-02,北区櫛引町２丁目４８２番地２,櫛引公園南側フェンス,35.9211365,139.6078719
埼玉県,さいたま市,01-02,北区櫛引町２丁目５０３番地,市立日進中学校南側フェンス,35.9218566,139.6100798
埼玉県,さいたま市,01-02,北区東大成町１丁目４８３番地,東大成１丁目自治会館南側 住宅北側,35.9196598,139.6226343
埼玉県,さいたま市,01-02,北区東大成町１丁目１５９番地,県営大宮長山住宅５棟南側植込み,35.9216466,139.6203264
埼玉県,さいたま市,01-02,北区東大成町１丁目１５９番地,県営大宮長山団地６棟東側植込み,35.9216466,139.6203264
埼玉県,さいたま市,01-02,北区東大成町１丁目１５９番地,県営大宮長山団地5棟東側植込み,35.9216466,139.6203264
埼玉県,さいたま市,01-02,北区東大成町１丁目１５９番地,県営大宮長山団地3棟西側駐輪場植込み,35.9216466,139.6203264
埼玉県,さいたま市,01-02,北区東大成町１丁目３５０番地先,住宅北側歩道,35.9199048,139.6203091
埼玉県,さいたま市,01-02,北区東大成町１丁目６３１番地１,仲仙道公園東側入口横フェンス,35.9201513,139.6235805
埼玉県,さいたま市,01-02,北区植竹町１丁目５９３番地１,高齢者生きがい活動センター西側入口横フェンス,35.9277015,139.6241343
埼玉県,さいたま市,01-02,北区植竹町１丁目１０２番地１,鈴浦公園南側フェンス,35.9275682,139.6235333
埼玉県,さいたま市,01-02,北区植竹町１丁目１４５番地,東植竹公園東側フェンス,35.9227014,139.6259436
埼玉県,さいたま市,01-02,北区植竹町１丁目４６７番地,植竹北公園西側フェンス,35.9275682,139.6235333
埼玉県,さいたま市,01-02,北区植竹町１丁目２４１番地,こまどり公園南側フェンス,35.9275682,139.6235333
埼玉県,さいたま市,01-02,北区植竹町１丁目３３４番地,大宮植竹南住宅南側フェンス,35.9253466,139.6265904
埼玉県,さいたま市,01-02,北区植竹町１丁目３４５番地３,源太郎公園北側フェンス,35.9275682,139.6235333
埼玉県,さいたま市,01-02,北区植竹町２丁目１番地,市立植竹小学校西側正門横フェンス,35.9301449,139.625844
埼玉県,さいたま市,01-02,北区植竹町２丁目１番地,市立植竹小学校南側フェンス,35.9301449,139.625844
埼玉県,さいたま市,01-02,北区植竹町２丁目６８番地,県立特別支援学校 大宮ろう学園北側フェンス,35.9318679,139.6255003
埼玉県,さいたま市,01-02,北区植竹町２丁目８５番地,県営大宮植竹住宅駐車場の西側,35.9306073,139.6284585
埼玉県,さいたま市,01-02,北区盆栽町１８５番地,（公財）鉄道弘済会コリノ大宮公園南側フェンス,35.9260859,139.6311827
埼玉県,さいたま市,01-02,北区盆栽町２６７番地１,盆栽四季の家南側駐車場入口横,35.9267594,139.6332544
埼玉県,さいたま市,01-02,北区盆栽町４３０番地,盆栽西公園北側フェンス,35.9273647,139.6281087
埼玉県,さいたま市,01-03,大宮区大成町2丁目282番地,大成小学校北側フェンス,35.9147229,139.6136972
埼玉県,さいたま市,01-03,大宮区大成町2丁目176番地,大成2丁目公園東側フェンス,35.9138437,139.615509
埼玉県,さいたま市,01-03,大宮区大成町2丁目478番地1,精進場第2公園東側フェンス,35.9130467,139.6158849
埼玉県,さいたま市,01-03,大宮区大成町3丁目241番地,大成3丁目公園東側フェンス,35.918441,139.6170285
埼玉県,さいたま市,01-03,大宮区大成町3丁目254番地2,駐車場西側歩道,35.9187087,139.6175745
埼玉県,さいたま市,01-03,大宮区大成町2丁目310番地,大成小学校西側フェンス,35.9149414,139.6138507
埼玉県,さいたま市,01-03,大宮区大成町3丁目562番地,精進場公園東側フェンス,35.9176192,139.6158849
埼玉県,さいたま市,01-03,大宮区大成町3丁目562番地,精進場公園西側フェンス,35.9176192,139.6158849
埼玉県,さいたま市,01-03,大宮区大成町2丁目379番地,大成中学校東側正門横フェンス,35.9130467,139.6158849
埼玉県,さいたま市,01-03,大宮区大成町1丁目205番地,八幡神社南側フェンス,35.9094745,139.6147507
埼玉県,さいたま市,01-03,大宮区大成町1丁目205番地,八幡自治会館北側勝手口前,35.9094745,139.6147507
埼玉県,さいたま市,01-03,大宮区大成町1丁目5番地,市営桜木駐車場北側西寄りフェンス,35.9094161,139.6139729
埼玉県,さいたま市,01-03,大宮区大成町2丁目269番地,大成小学校南側フェンス,35.9135758,139.6141223
埼玉県,さいたま市,01-03,大宮区大成町1丁目465番地,埼玉県視覚障害者福祉センター南側フェンス,35.9094102,139.6125518
埼玉県,さいたま市,01-03,大宮区大成町2丁目379番地,大成中学校グランド西側フェンス下,35.9130467,139.6158849
埼玉県,さいたま市,01-03,大宮区櫛引町1丁目406番地,櫛引町1丁目自治会館,35.9110149,139.609763
埼玉県,さいたま市,01-03,大宮区櫛引町1丁目779番地2,渋谷コート3号館南側歩道,35.9155616,139.6055975
埼玉県,さいたま市,01-03,大宮区櫛引町1丁目9番地,渋谷マンション北側フェンス,35.9066082,139.6122326
埼玉県,さいたま市,01-03,大宮区櫛引町1丁目440番地1,熊野下公園北側,35.9122424,139.6082375
埼玉県,さいたま市,01-03,大宮区櫛引町1丁目654番地,櫛引氷川神社西側ブロック塀,35.914063,139.6073261
埼玉県,さいたま市,01-03,大宮区櫛引町1丁目810番地,個人宅西側ガードレール,35.9152456,139.607311
埼玉県,さいたま市,01-03,大宮区櫛引町1丁目826番地,県営大宮櫛引団地１号棟東側フェンス,35.9156168,139.6090949
埼玉県,さいたま市,01-03,大宮区櫛引町1丁目528番地,ハローワーク大宮駐車場入口横フェンス,35.9124546,139.6076011
埼玉県,さいたま市,01-03,大宮区三橋1丁目664番地,大宮なみき幼稚園西側正門横フェンス,35.9079517,139.6030316
埼玉県,さいたま市,01-03,大宮区三橋1丁目55番地,大平公園南側正門横フェンス,35.9108097,139.6018654
埼玉県,さいたま市,01-03,大宮区三橋1丁目55番地,大平公園東側フェンス,35.9108097,139.6018654
埼玉県,さいたま市,01-03,大宮区三橋1丁目629番地4,三橋1丁目西公園東側柵,35.9093077,139.6017672
埼玉県,さいたま市,01-03,大宮区三橋1丁目850番地1,県営大宮三橋住宅1号棟南側水路フェンス,35.9141713,139.6005336
埼玉県,さいたま市,01-03,大宮区三橋1丁目850番地1,県営大宮三橋住宅6号棟北側,35.9141713,139.6005336
埼玉県,さいたま市,01-03,大宮区三橋1丁目55番地,大平公園北西角フェンス,35.9108097,139.6018654
埼玉県,さいたま市,01-03,大宮区三橋1丁目745番地2,三橋三島公園南側フェンス,35.9108097,139.6018654
埼玉県,さいたま市,01-03,大宮区三橋2丁目20番地,三橋小学校西側フェンス,35.9029217,139.605168
埼玉県,さいたま市,01-03,大宮区三橋2丁目20番地,三橋小学校北側フェンス三橋公民館隣,35.9029217,139.605168
埼玉県,さいたま市,01-03,大宮区三橋2丁目20番地,三橋小学校南側正門横フェンス,35.9029217,139.605168
埼玉県,さいたま市,01-03,大宮区三橋2丁目929番地,三橋保育園南側ブロック塀,35.9022288,139.6056907
埼玉県,さいたま市,01-03,大宮区三橋2丁目250番地,並木公園東側フェンス,35.9011512,139.6024727
埼玉県,さいたま市,01-03,大宮区三橋2丁目250番地,並木公園西側フェンス,35.9011512,139.6024727
埼玉県,さいたま市,01-03,大宮区三橋2丁目428番地2,三橋2丁目公園北入口横フェンス,35.9010368,139.6031397
埼玉県,さいたま市,01-03,大宮区三橋1丁目1300番地,三橋中学校北西角フェンス,35.9108097,139.6018654
埼玉県,さいたま市,01-03,大宮区三橋4丁目96番地,大宮国際中等教育学校東側中央フェンス（柵）,35.8931472,139.600591
埼玉県,さいたま市,01-03,大宮区三橋4丁目96番地,大宮国際中等教育学校東側南寄りフェンス（柵）,35.8931472,139.600591
埼玉県,さいたま市,01-03,大宮区三橋4丁目3番地,釣具店Ｇｒowth南側水路フェンス,35.8988545,139.5984631
埼玉県,さいたま市,01-03,大宮区三橋4丁目96番地,大宮国際中等教育学校北側フェンス（柵）,35.8931472,139.600591
埼玉県,さいたま市,01-03,大宮区三橋4丁目258番地,三橋天神公園西側フェンス,35.8952829,139.6018677
埼玉県,さいたま市,01-03,大宮区三橋2丁目565番地2,個人宅西側水路フェンス,35.8979508,139.599571
埼玉県,さいたま市,01-03,大宮区三橋4丁目904番地,個人宅西側フェンス,35.8902952,139.6034062
埼玉県,さいたま市,01-03,大宮区三橋2丁目580番地2,並木南公園南側入口横フェンス,35.8973023,139.6003426
埼玉県,さいたま市,01-03,大宮区三橋3丁目52番地,さいたま市立三つ和会館県道側フェンス,35.8978331,139.6089145
埼玉県,さいたま市,01-03,大宮区上小町1043番地,かみこ公園北側フェンス,35.8975482,139.6117573
埼玉県,さいたま市,01-03,大宮区三橋3丁目118番地,みつわ公園東側フェンス,35.8965178,139.6097709
埼玉県,さいたま市,01-03,大宮区上小町1208番地1,いずみ高校テニスコート西側柵,35.8951273,139.6117417
埼玉県,さいたま市,01-03,大宮区三橋3丁目118番地,みつわ公園北側角地,35.8965178,139.6097709
埼玉県,さいたま市,01-03,大宮区三橋3丁目85番地,ジョイナステニスアカデミー南側壁（柵）,35.8975319,139.6062575
埼玉県,さいたま市,01-03,大宮区三橋2丁目736番地,三橋2丁目南公園北側,35.8987091,139.6040172
埼玉県,さいたま市,01-03,大宮区上小町845番地4,上小保育園東側正門横フェンス,35.8999924,139.6113381
埼玉県,さいたま市,01-03,大宮区上小町1110番地,小村田神社公園,35.8995534,139.6140714
埼玉県,さいたま市,01-03,大宮区上小町422番地,かみこ幼稚園南向側フェンス,35.8995542,139.6107865
埼玉県,さいたま市,01-03,大宮区上小町1096番地,山本第１月極駐車場北側フェンス,35.8995542,139.6107865
埼玉県,さいたま市,01-03,大宮区上小町1036番地2,西南公園南側,35.8985115,139.61251
埼玉県,さいたま市,01-03,大宮区上小町615番地4,県道新方須賀さいたま線 内海工務店前,35.9011424,139.6102541
埼玉県,さいたま市,01-03,大宮区上小町535番地,アルファクラブ武蔵野ビル東側フェンス,35.9028755,139.6130526
埼玉県,さいたま市,01-03,大宮区上小町1337番地,上小小学校北西側,35.8969999,139.6164027
埼玉県,さいたま市,01-03,大宮区上小町1337番地,上小小学校東側フェンス,35.8969999,139.6164027
埼玉県,さいたま市,01-03,大宮区上小町1337番地,上小小学校南西側フェンス,35.8969999,139.6164027
埼玉県,さいたま市,01-03,大宮区上小町1043番地,かみこ公園南側フェンス,35.8975482,139.6117573
埼玉県,さいたま市,01-03,大宮区桜木町4丁目609番地,個人宅南向側フェンス,35.9039008,139.6158849
埼玉県,さいたま市,01-03,大宮区中央区本町東6丁目11番1号先,埼玉精神神経センター北東側フェンス,35.8941482,139.6173878
埼玉県,さいたま市,01-03,大宮区桜木町4丁目534番地,大宮配水場管理棟北側正門横フェンス,35.8956982,139.6189488
埼玉県,さいたま市,01-03,大宮区桜木町4丁目219番地,桜木中学校北側正門横フェンス,35.9053859,139.6166708
埼玉県,さいたま市,01-03,大宮区桜木町4丁目219番地,桜木中学校西側南フェンス,35.9053859,139.6166708
埼玉県,さいたま市,01-03,大宮区桜木町4丁目219番地,桜木中学校西側北寄りフェンス,35.9053859,139.6166708
埼玉県,さいたま市,01-03,大宮区桜木町4丁目174番地,桜木公園北側フェンス,35.90524,139.6142421
埼玉県,さいたま市,01-03,大宮区桜木町4丁目328番地9,桜木小学校西側北寄りフェンス,35.9032883,139.6164027
埼玉県,さいたま市,01-03,大宮区桜木町4丁目328番地9,桜木小学校西側西門横フェンス,35.9032883,139.6164027
埼玉県,さいたま市,01-03,大宮区桜木町4丁目926番地先,桜四条公園北側フェンス,35.9037039,139.6149644
埼玉県,さいたま市,01-03,大宮区桜木町1丁目7番地7,鐘塚公園東側,35.9052022,139.6195206
埼玉県,さいたま市,01-03,大宮区桜木町1丁目7番地8,鐘塚公園北側,35.905061,139.619397
埼玉県,さいたま市,01-03,大宮区桜木町3丁目172番地13,桜木神明公園東側フェンス,35.9153311,139.618175
埼玉県,さいたま市,01-03,大宮区桜木町１丁目213番地1,桜木１丁目公園南側フェンス,35.902411,139.6225407
埼玉県,さいたま市,01-03,大宮区桜木町3丁目1番地１,市営桜木駐車場北側東寄りフェンス,35.9096284,139.6181454
埼玉県,さいたま市,01-03,大宮区桜木町2丁目462番地,桜成公園西側フェンス,35.9079456,139.6177433
埼玉県,さいたま市,01-03,大宮区桜木町3丁目1番地１,市営桜木駐車場東側フェンス,35.9096284,139.6181454
埼玉県,さいたま市,01-03,大宮区大門町２丁目119番地,大宮門街（かどまち）正面入口前フェンス,35.9075493,139.6270392
埼玉県,さいたま市,01-03,大宮区大門町1丁目13番地先,高島屋北側歩道フェンス,35.9057948,139.6252324
埼玉県,さいたま市,01-03,大宮区下町3丁目47番地先,さいたま市民会館おおみや北側氷川参道沿い,35.9033598,139.6302464
埼玉県,さいたま市,01-03,大宮区大門町２丁目７９番地先,EIGHT BURGER前植え込み,35.9075493,139.6270392
埼玉県,さいたま市,01-03,大宮区大門町3丁目45番地,富士火災大宮ビル前,35.9075929,139.6292703
埼玉県,さいたま市,01-03,大宮区東町1丁目16番地2,大宮東町第一生命ビル前,35.9074327,139.6317934
埼玉県,さいたま市,01-03,大宮区下町3丁目8番地先,氷川住宅東側氷川参道沿い,35.904557,139.6308746
埼玉県,さいたま市,01-03,大宮区吉敷町1丁目120番地1,山丸公園中央付近,35.9023964,139.6309957
埼玉県,さいたま市,01-03,大宮区宮町3丁目84番地,大宮北小学校西側正門南寄りフェンス,35.9111364,139.6267204
埼玉県,さいたま市,01-03,大宮区高鼻町1丁目339番地,個人宅東側氷川参道沿い,35.9134771,139.6302705
埼玉県,さいたま市,01-03,大宮区高鼻町1丁目194番地,個人宅西側ブロック塀,35.9117305,139.6301343
埼玉県,さいたま市,01-03,大宮区宮町2丁目90番地,宇治病院北側フェンス,35.9098617,139.6285468
埼玉県,さいたま市,01-03,大宮区宮町3丁目84番地,大宮北小学校北側フェンス,35.9111364,139.6267204
埼玉県,さいたま市,01-03,大宮区宮町3丁目113番地3,大宮北公民館東側フェンス,35.9115096,139.6285773
埼玉県,さいたま市,01-03,大宮区高鼻町1丁目440番地先,個人宅西側歩道,35.9163598,139.6282318
埼玉県,さいたま市,01-03,大宮区土手町3丁目24番地,個人宅北側歩道植栽,35.9155374,139.6259015
埼玉県,さいたま市,01-03,大宮区土手町1丁目154番地,県営大宮土手町住宅77-2号棟西側フェンス,35.9147627,139.6221327
埼玉県,さいたま市,01-03,大宮区土手町1丁目153番地,県営大宮土手町住宅77-2号棟東側フェンス,35.915068,139.6221352
埼玉県,さいたま市,01-03,大宮区土手町1丁目153番地,県営大宮土手町住宅76-1号棟東側フェンス,35.915068,139.6221352
埼玉県,さいたま市,01-03,大宮区土手町3丁目184番地,大宮税務署西側フェンス,35.9171746,139.6262109
埼玉県,さいたま市,01-03,大宮区土手町2丁目97番地,多子稲荷神社西側,35.9148332,139.6268674
埼玉県,さいたま市,01-03,大宮区土手町3丁目285番地,北大宮駅線路南側広告看板フェンス裏手,35.9170359,139.6246749
埼玉県,さいたま市,01-03,大宮区寿能町1丁目21番地,大宮北中学校南側正門横ブロック塀,35.9215892,139.632973
埼玉県,さいたま市,01-03,大宮区寿能町1丁目31番地1,大宮公園駅前ハイツ南側フェンス,35.9227192,139.6316406
埼玉県,さいたま市,01-03,大宮区寿能町2丁目195番地1,県営大宮寿能住宅運動広場東側,35.9214249,139.6357658
埼玉県,さいたま市,01-03,大宮区寿能町2丁目195番地1,県営大宮寿能住宅外来駐車場北側フェンス,35.9214249,139.6357658
埼玉県,さいたま市,01-03,大宮区寿能町2丁目140番地,寿能保育園南側入口横フェンス,35.9211689,139.6366435
埼玉県,さいたま市,01-03,大宮区寿能町2丁目155番地,寿能公園南側フェンス,35.9212021,139.6389035
埼玉県,さいたま市,01-03,大宮区高鼻町4丁目130番地,公園緑地協会本部東側フェンス,35.9208756,139.6314616
埼玉県,さいたま市,01-03,大宮区堀の内町3丁目145番地,大宮東小学校西側正門横フェンス,35.9139351,139.6356852
埼玉県,さいたま市,01-03,大宮区堀の内町2丁目276番地2,水路フェンス,35.9131055,139.6377957
埼玉県,さいたま市,01-03,大宮区堀の内町3丁目145番地,大宮東小学校南側フェンス,35.9139351,139.6356852
埼玉県,さいたま市,01-03,大宮区堀の内町3丁目367番地,堀の内町3丁目自治会館南側フェンス,35.9174696,139.6377884
埼玉県,さいたま市,01-03,大宮区高鼻町1丁目170番地先,旧大宮図書館西側氷川参道沿い,35.9110593,139.6305108
埼玉県,さいたま市,01-03,大宮区堀の内町3丁目145番地,大宮東小学校東側フェンス,35.9139351,139.6356852
埼玉県,さいたま市,01-03,大宮区高鼻町2丁目405番地,埼玉県大宮公園事務所入口横フェンス,35.913711,139.6330952
埼玉県,さいたま市,01-03,大宮区堀の内町1丁目123番地2,大宮東中学校南側正門フェンス,35.9105683,139.6394707
埼玉県,さいたま市,01-03,大宮区天沼町1丁目148番地1,白菊保育園東側フェンス,35.9060249,139.6399887
埼玉県,さいたま市,01-03,大宮区天沼町1丁目194番地,天沼児童センター西側フェンス,35.906222,139.6369601
埼玉県,さいたま市,01-03,大宮区堀の内町1丁目50番地先,駐車場東側水路フェンス,35.9111459,139.6416514
埼玉県,さいたま市,01-03,大宮区堀の内町1丁目99番地,大宮東中学校北側東寄りフェンス,35.908687,139.6351138
埼玉県,さいたま市,01-03,大宮区堀の内町1丁目410番地2,個人宅南西側ブロック塀,35.9104155,139.6376874
埼玉県,さいたま市,01-03,大宮区堀の内町1丁目99番地,大宮東中学校東側フェンス,35.908687,139.6351138
埼玉県,さいたま市,01-03,大宮区堀の内町1丁目182番地2,堀の内１丁目公園フェンス,35.9105683,139.6394707
埼玉県,さいたま市,01-03,大宮区堀の内町1丁目615番地,大宮開成高等学校南側フェンス東側入口の端から,35.9105683,139.6394707
埼玉県,さいたま市,01-03,大宮区天沼町1丁目760番地,第二東中学校西側フェンス,35.9088942,139.645192
埼玉県,さいたま市,01-03,大宮区堀の内町2丁目612番地,芝川公園北側フェンス,35.9145134,139.6407459
埼玉県,さいたま市,01-03,大宮区天沼町1丁目760番地,第二東中学校南側フェンス西側寄り,35.9088942,139.645192
埼玉県,さいたま市,01-03,大宮区堀の内町1丁目615番地,大宮開成高等学校北東側フェンス,35.9105683,139.6394707
埼玉県,さいたま市,01-03,大宮区堀の内町1丁目606番地先,グランドシティサウスタワー向かい西側水路フェンス,35.9114015,139.6424196
埼玉県,さいたま市,01-03,大宮区堀の内町1丁目577番地1,堀の内ポンプ場北西側フェンス,35.9122505,139.6411869
埼玉県,さいたま市,01-03,大宮区天沼町2丁目1077番地,芝川小学校南側正門横フェンス,35.9007914,139.6407459
埼玉県,さいたま市,01-03,大宮区天沼町1丁目347番地,個人宅南向側畑,35.9049071,139.6436095
埼玉県,さいたま市,01-03,大宮区天沼町1丁目523番地2,ドルミ公園北側,35.9084209,139.642827
埼玉県,さいたま市,01-03,大宮区天沼町1丁目337番地,個人宅北側駐車場フェンス,35.9073383,139.6413835
埼玉県,さいたま市,01-03,大宮区天沼町2丁目930番地,個人宅南向側空地,35.902572,139.642242
埼玉県,さいたま市,01-03,大宮区天沼町2丁目999番地3,個人宅東側フェンス,35.9041739,139.6439446
埼玉県,さいたま市,01-03,大宮区天沼町2丁目1062番地14先,個人宅南向側フェンス,35.9023099,139.6451675
埼玉県,さいたま市,01-03,大宮区天沼町2丁目362番地,大宮南中学校西側正門横フェンス,35.9007914,139.6407459
埼玉県,さいたま市,01-03,大宮区天沼町2丁目179番地,なかよし公園北側フェンス,35.9007914,139.6407459
埼玉県,さいたま市,01-03,大宮区天沼町2丁目323番地,大宮高等学校西側正門北寄りフェンス,35.8996718,139.636559
埼玉県,さいたま市,01-03,大宮区天沼町2丁目362番地,大宮南中学校グラウンド西側フェンス,35.9007914,139.6407459
埼玉県,さいたま市,01-03,大宮区天沼町2丁目438番地1,天沼保育園南側フェンス,35.8988196,139.639489
埼玉県,さいたま市,01-03,大宮区天沼町2丁目725番地2,個人宅南西側都市計画道路用地囲い柵,35.9017028,139.639984
埼玉県,さいたま市,01-03,大宮区大原7丁目1番1号,浦和下木崎住宅第３団地西側フェンス,35.9007105,139.643096
埼玉県,さいたま市,01-03,大宮区吉敷町3丁目87番地,大宮南小学校北側フェンス,35.9008833,139.6337975
埼玉県,さいたま市,01-03,大宮区吉敷町3丁目87番地,大宮南小学校東側フェンス,35.9008833,139.6337975
埼玉県,さいたま市,01-03,大宮区吉敷町3丁目87番地,大宮南小学校西側フェンス,35.9008833,139.6337975
埼玉県,さいたま市,01-03,大宮区吉敷町1丁目124番地1,大宮区役所北西側植栽,35.901783,139.6306352
埼玉県,さいたま市,01-03,大宮区吉敷町4丁目197番地3,ほこすぎ橋東広場フェンス,35.8961307,139.6362829
埼玉県,さいたま市,01-03,大宮区吉敷町1丁目46番地先,大宮区役所東側氷川参道沿い,35.9010444,139.6279298
埼玉県,さいたま市,01-03,大宮区吉敷町4丁目223番地2,大宮南公民館北側フェンス,35.8983553,139.6356852
埼玉県,さいたま市,01-03,大宮区吉敷町４丁目87番地1,一の鳥居ひろば西側外柵,35.8983678,139.6312927
埼玉県,さいたま市,01-03,大宮区北袋町1丁目190番地,日商岩井大宮平和台マンションB北側,35.8952458,139.6413917
埼玉県,さいたま市,01-03,大宮区北袋町1丁目190番地,日商岩井大宮平和台マンションA北側,35.8952458,139.6413917
埼玉県,さいたま市,01-03,大宮区北袋町1丁目190番地,平和台公園東側フェンス,35.8952458,139.6413917
埼玉県,さいたま市,01-03,大宮区北袋町2丁目81番地,首都高速新都心出口横植栽,35.8961709,139.6440865
埼玉県,さいたま市,01-03,大宮区北袋町2丁目237番地,北袋天神公園東側,35.8941391,139.6451472
埼玉県,さいたま市,01-03,大宮区北袋町2丁目158番地,北袋ふれあい公園北側植栽,35.894959,139.6432963
埼玉県,さいたま市,01-03,大宮区北袋町2丁目401番地2,北袋公園北側フェンス,35.8910115,139.6452921
埼玉県,さいたま市,01-03,大宮区北袋町1丁目700番地,シントシティ南側植栽,35.8925856,139.6388331
埼玉県,さいたま市,01-01,西区大字峰岸14番地5,穂積神社遊園地 入口フェンス,35.9295752,139.5576395
埼玉県,さいたま市,01-01,西区大字峰岸68番地,市営峰岸住宅 西側フェンス,35.9319402,139.555109
埼玉県,さいたま市,01-01,西区大字峰岸83番地8,峰岸北公園 東側フェンス,35.9322962,139.5560137
埼玉県,さいたま市,01-01,西区大字宝来413番地,住宅 南側交差点の南西側水路フェンス,35.9248766,139.5547333
埼玉県,さいたま市,01-01,西区大字宝来880番地1,北部配水場 東側フェンス,35.9241152,139.556552
埼玉県,さいたま市,01-01,西区大字宝来1280番地2,中宝来自治会館 北側水路フェンス,35.9229191,139.5598963
埼玉県,さいたま市,01-01,西区大字宝来1062番地,大宮国際カントリー 入口看板の反対側水路フェンス,35.92126,139.55605
埼玉県,さいたま市,01-01,西区大字中釘1506番地1,市立指扇北小学校 北側正門 水路フェンス,35.9331982,139.5712781
埼玉県,さいたま市,01-01,西区大字中釘2060番地,中釘自治会館 東側ブロック塀,35.9380556,139.5720949
埼玉県,さいたま市,01-01,西区大字高木1572番地6,高木天神公園 南側フェンス,35.9387006,139.5767156
埼玉県,さいたま市,01-01,西区大字中釘1673番地3,指扇北部自警消防団 サイレン塔フェンス,35.9346028,139.567468
埼玉県,さいたま市,01-01,西区大字中釘1241番地,秋葉の森総合公園 駐車場入口脇の植込み,35.9332609,139.5679875
埼玉県,さいたま市,01-01,西区西大宮4丁目49番地,西大宮4丁目第一公園 西側フェンス,35.9333288,139.5770208
埼玉県,さいたま市,01-01,西区大字高木567番地3,市立指扇保育園 東側フェンス,35.9274793,139.570779
埼玉県,さいたま市,01-01,西区大字中釘806番地,秋葉神社公園 南側フェンス,35.9303767,139.5648114
埼玉県,さいたま市,01-01,西区西大宮3丁目4番地2,西区役所西側駐車場 南側の植込み,35.9252445,139.5798299
埼玉県,さいたま市,01-01,西区大字指扇1653番地1,古茂塚北公園 北側の植込み,35.9178454,139.5826881
埼玉県,さいたま市,01-01,西区大字清河寺619番地3,清河寺バス停 東側道路フェンス,35.93622,139.5827532
埼玉県,さいたま市,01-01,西区西大宮1丁目43番地,西大宮1丁目第二公園 北側フェンス,35.9225304,139.575747
埼玉県,さいたま市,01-01,西区大字清河寺1260番地1,三共リース㈱ 道路向かい側の路肩,35.93622,139.5827532
埼玉県,さいたま市,01-01,西区西大宮3丁目48番地,西消防署 南側フェンス,35.9283337,139.5802054
埼玉県,さいたま市,01-01,西区西大宮1丁目5番地2,西大宮１丁目第一公園 北側フェンス,35.923607,139.5813297
埼玉県,さいたま市,01-01,西区西大宮3丁目12番地2,西大宮３丁目第一公園 西側フェンス,35.9262096,139.5801678
埼玉県,さいたま市,01-01,西区大字内野本郷965番地1,内野本郷大空公園 西側フェンス,35.9377572,139.5917013
埼玉県,さいたま市,01-01,西区大字西新井124番地,大宮花の丘農林公苑 西側駐車場南側フェンス,35.9418209,139.5853012
埼玉県,さいたま市,01-01,西区大字西新井64番地5,西新井自治会館 西側正門 右側フェンス,35.8913542,139.7600332
埼玉県,さいたま市,01-01,西区大字内野本郷971番地63,上野原北公園 東側フェンス,35.9388163,139.591858
埼玉県,さいたま市,01-01,西区大字内野本郷693番地16,共栄橋付近 歩道フェンス,35.9358846,139.596818
埼玉県,さいたま市,01-01,西区大字内野本郷550番地6,セキ薬局・ミニストップの間 歩道植込み,35.9357734,139.5929456
埼玉県,さいたま市,01-01,西区大字内野本郷449番地1,内野本郷バス停向かい側 歩道植込み,35.9345257,139.5922886
埼玉県,さいたま市,01-01,西区宮前町1634番地,宮前町二丁目自治会館 西側,35.9295583,139.5955701
埼玉県,さいたま市,01-01,西区宮前町1467番地,市立宮前中学校 北西側フェンス,35.9301807,139.5986133
埼玉県,さいたま市,01-01,西区宮前町822番地2,㈱日新化成 向かい側道路フェンス,35.9274831,139.5865752
埼玉県,さいたま市,01-01,西区宮前町1467番地,市立宮前中学校 南西側フェンス,35.9301807,139.5986133
埼玉県,さいたま市,01-01,西区宮前町832番地1,住宅 南側水路フェンス,35.9274831,139.5865752
埼玉県,さいたま市,01-01,西区宮前町1102番地1,宮前ＩＣ付近 道路フェンス,35.9274831,139.5865752
埼玉県,さいたま市,01-01,西区宮前町376番地4,宮前公園 西側フェンス,35.9243468,139.5959115
埼玉県,さいたま市,01-01,西区三橋6丁目1558番地,市立大宮西中学校 西側フェンス,35.9164589,139.5903973
埼玉県,さいたま市,01-01,西区三橋6丁目1709番地3,三橋プール 南側フェンス,35.921919,139.5852141
埼玉県,さいたま市,01-01,西区三橋6丁目1587番地,総合療育ｾﾝﾀｰひまわり学園 西側入口 左側フェンス,35.9208456,139.590054
埼玉県,さいたま市,01-01,西区宮前町541番地11,県南交通前交差点 北東向側フェンス,35.9257193,139.5914283
埼玉県,さいたま市,01-01,西区三橋6丁目1181番地5,シティハイツ大宮三橋 ８号棟西側フェンス,35.9171841,139.5852798
埼玉県,さいたま市,01-01,西区三橋6丁目1181番地7,西第二公園 南側フェンス,35.9169441,139.5855689
埼玉県,さいたま市,01-01,西区三橋6丁目1048番地1,西第三公園 南側フェンス（西部文化センターの向い側）,35.9164589,139.5903973
埼玉県,さいたま市,01-01,西区三橋6丁目1587番地,総合療育ｾﾝﾀｰひまわり学園 南側フェンス,35.9208456,139.590054
埼玉県,さいたま市,01-01,西区三橋6丁目381番地1,市立三橋西保育園 入口西側フェンス,35.9128889,139.5860514
埼玉県,さいたま市,01-01,西区三橋6丁目605番地2,県営大宮三橋西団地１号棟 南側フェンス,35.9164589,139.5903973
埼玉県,さいたま市,01-01,西区三橋5丁目560番地4,三橋5丁目公園 西側フェンス,35.9108061,139.5941917
埼玉県,さいたま市,01-01,西区三橋6丁目1218番地,三橋６丁目児童公園 東側植え込み,35.9155336,139.5864425
埼玉県,さいたま市,01-01,西区三橋6丁目260番地,三橋６丁目南公園 北側フェンス,35.9164589,139.5903973
埼玉県,さいたま市,01-01,西区三橋5丁目20番地2,三橋総合公園 北側駐車場入口 右側,35.9070906,139.595494
埼玉県,さいたま市,01-01,西区三橋5丁目790番地5,三橋総合公園 南側進入口の先のフェンス内,35.908882,139.5967881
埼玉県,さいたま市,01-01,西区三橋5丁目1359番地,市立大宮西小学校 校門横フェンス,35.9070906,139.595494
埼玉県,さいたま市,01-01,西区三橋5丁目936番地2,青葉公園 北側フェンス,35.9067252,139.5931904
埼玉県,さいたま市,01-01,西区大字水判土388番地1,水判土公園チビッコ広場 北側,35.8995158,139.5923085
埼玉県,さいたま市,01-01,西区三橋5丁目938番地,三橋５丁目自治会館 西側ブロック塀,35.9068432,139.5928062
埼玉県,さいたま市,01-01,西区三橋5丁目1862番地,三橋５丁目東公園 入口,35.9046252,139.5951874
埼玉県,さいたま市,01-01,西区三橋5丁目2212番地1,三橋５丁目南公園 東側フェンス,35.9164367,139.587252
埼玉県,さいたま市,01-01,西区大字水判土62番地1,水判土交差点 北側市有地 （馬防柵）,35.8986149,139.5924733
埼玉県,さいたま市,01-01,西区大字佐知川299番地16,春光園うえみず 入口西側フェンス,35.9036519,139.587553
埼玉県,さいたま市,01-01,西区大字佐知川228番地118,佐知川原公園 東側フェンス,35.9056031,139.5882976
埼玉県,さいたま市,01-01,西区大字佐知川385番地19,佐知川原第３公園 北側フェンス,35.9056893,139.5866873
埼玉県,さいたま市,01-01,西区大字佐知川221番地1,市立大宮西小学校 南西角フェンス,35.9042243,139.5904372
埼玉県,さいたま市,01-01,西区大字佐知川1123番地5,市営植水住宅集会所 西側フェンス,35.9013855,139.5829662
埼玉県,さいたま市,01-01,西区大字佐知川1123番地5,市営植水住宅１号棟 南側フェンス,35.9013855,139.5829662
埼玉県,さいたま市,01-01,西区大字佐知川粕田44番地,佐知川公園 東側フェンス,35.9029686,139.5853012
埼玉県,さいたま市,01-01,西区プラザ46番18号,大宮プラザ自治会館入口フェンス（中央通り側）,35.9071221,139.5792292
埼玉県,さいたま市,01-01,西区プラザ339番25号,プラザ３号公園 西側フェンス,35.9075632,139.5782946
埼玉県,さいたま市,01-01,西区プラザ444番57号,プラザ１号公園 北側フェンス,35.9075632,139.5782946
埼玉県,さいたま市,01-01,西区プラザ754番28号,プラザ中央公園 北側フェンス,35.9075632,139.5782946
埼玉県,さいたま市,01-01,西区プラザ36番,愛徳幼稚園 西向側（水路側）フェンス,35.906045,139.5778966
埼玉県,さいたま市,01-01,西区プラザ754番28号,プラザ中央公園 南側フェンス,35.9075632,139.5782946
埼玉県,さいたま市,01-01,西区プラザ620番87号,プラザ２号公園 北側フェンス,35.9075632,139.5782946
埼玉県,さいたま市,01-01,西区大字佐知川1471番地1,金山墓地 北側ブロック塀,35.9029686,139.5853012
埼玉県,さいたま市,01-01,西区大字指扇325番地17,五味貝戸東公園 北側入口フェンス,35.9097317,139.5854987
埼玉県,さいたま市,01-01,西区大字指扇1185番地6,下戸緑地公園南側,35.9187889,139.5763839
埼玉県,さいたま市,01-01,西区大字指扇636番地2,井戸尻公園 東側フェンス,35.9087028,139.58004
埼玉県,さいたま市,01-01,西区大字指扇1078番地,県営大宮指扇団地 北西側水路フェンス,35.9122118,139.5794721
埼玉県,さいたま市,01-01,西区大字指扇291番地,指扇道下公園 西側フェンス,35.9090478,139.5856209
埼玉県,さいたま市,01-01,西区大字指扇1570番地13,古茂塚第二公園 南側フェンス,35.9154583,139.5823649
埼玉県,さいたま市,01-01,西区大字指扇104番地9,青葉西公園 東側フェンス,35.9073837,139.5887547
埼玉県,さいたま市,01-01,西区大字指扇331番地,五味貝戸自治会館 東側ブロック塀,35.9090566,139.5854256
埼玉県,さいたま市,01-01,西区西大宮1丁目49番地34,市立指扇小学校 西側正門横フェンス,35.9221842,139.5722706
埼玉県,さいたま市,01-01,西区大字指扇3363番地7,大西公園 南側フェンス（LM大宮指扇第2の北側）,35.9176883,139.5776099
埼玉県,さいたま市,01-01,西区大字指扇領別所109番地3,宮脇公園 西側フェンス,35.9222309,139.5683751
埼玉県,さいたま市,01-01,西区大字宝来1656番地39,指扇駅北口ロータリー 中央植え込み,35.9168913,139.5647828
埼玉県,さいたま市,01-01,西区大字指扇領別所382番地110,住友２号公園 南側フェンス,35.9224216,139.5659268
埼玉県,さいたま市,01-01,西区大字指扇領別所109番地48,住友３号公園 北側フェンス,35.9229256,139.5679288
埼玉県,さいたま市,01-01,西区大字高木300番地31,指扇団地公園 南側フェンス,35.9255276,139.5696768
埼玉県,さいたま市,01-01,西区大字宝来1760番地11,大宮宝来ハイツ公園 南側フェンス,35.9184278,139.5589512
埼玉県,さいたま市,01-01,西区大字指扇2804番地1,赤羽自治会館入口付近フェンス,35.9161875,139.571478
埼玉県,さいたま市,01-01,西区大字指扇2856番地245,指扇台東公園 西側フェンス,35.9188748,139.571927
埼玉県,さいたま市,01-01,西区大字指扇2826番地3,鎮守公園 東側フェンス,35.9187889,139.5763839
埼玉県,さいたま市,01-01,西区大字指扇2617番地2,赤羽根第１公園 南東側フェンス,35.9166701,139.5669914
埼玉県,さいたま市,01-01,西区大字指扇2809番地1,指扇氷川神社 南側入口付近,35.9158161,139.5713984
埼玉県,さいたま市,01-01,西区大字指扇1958番地143,やよい公園 東側フェンス,35.9153228,139.5761623
埼玉県,さいたま市,01-01,西区大字指扇1958番地269,わかば公園 南側フェンス,35.9153228,139.5761623
埼玉県,さいたま市,01-01,西区大字土屋1766番地1,市立土屋中学校 西側フェンス,35.9117966,139.57112
埼玉県,さいたま市,01-01,西区大字土屋1752番地5,大宮土屋ハイツ公園 西側フェンス,35.9124677,139.5684284
埼玉県,さいたま市,01-01,西区大字指扇2285番地,琵琶島公園 北東側フェンス,35.9187889,139.5763839
埼玉県,さいたま市,01-01,西区大字土屋258番地1,市立土屋中学校グランド 北東側フェンス,35.9090418,139.5706521
埼玉県,さいたま市,01-01,西区大字土屋262番地1,市立土屋中学校 南東側フェンス,35.9090418,139.5706521
埼玉県,さいたま市,01-01,西区大字土屋217番地,土屋公園 東側フェンス,35.9099075,139.5698187
埼玉県,さいたま市,01-01,西区大字指扇1118番地46,下戸公園 西側フェンス,35.9103764,139.5787484
埼玉県,さいたま市,01-01,西区大字指扇2220番地2,さいたま春日部線沿い 道路フェンス,35.9133054,139.5747257
埼玉県,さいたま市,01-01,西区大字西遊馬1601番地,大宮武蔵野高等学校 東側正門隣水路フェンス,35.9105311,139.5604014
埼玉県,さいたま市,01-01,西区大字西遊馬1969番地7,西遊馬団地 遊水池フェンス,35.9148422,139.5630856
埼玉県,さいたま市,01-01,西区大字西遊馬1962番地6,西遊馬団地公園 北側,35.9165336,139.5609636
埼玉県,さいたま市,01-01,西区大字西遊馬1441番地1,西遊馬上サ自治会館 入口左側,35.9127886,139.5619737
埼玉県,さいたま市,01-01,西区大字西遊馬899番地3,西遊馬公園管理事務所 西側フェンス,35.9049143,139.5607969
埼玉県,さいたま市,01-01,西区大字西遊馬980番地1,西遊馬本村自治会館 北側フェンス,35.9092441,139.5638636
埼玉県,さいたま市,01-01,西区大字西遊馬1556番地5,西遊馬北公園 南側フェンス,35.9113382,139.5648254
埼玉県,さいたま市,01-01,西区大字飯田新田189番地2,市立馬宮西小学校 北側正門横フェンス,35.8858261,139.5599264
埼玉県,さいたま市,01-01,西区湯木町1丁目53番地3,湯木自治会館 南側フェンス,35.8951519,139.5553738
埼玉県,さいたま市,01-01,西区大字飯田新田318番地,飯田新田集会場 西側ブロック塀,35.8865135,139.553222
埼玉県,さいたま市,01-01,西区大字飯田新田560番地3,さいたまふじみ野所沢線沿い 道路フェンス,35.8847729,139.5572801
埼玉県,さいたま市,01-01,西区大字飯田新田189番地2,市立馬宮西小学校 東側フェンス,35.8858261,139.5599264
埼玉県,さいたま市,01-01,西区大字植田谷本村新田179番地4,住宅 北側空地（鉄塔の北側）,35.8928628,139.5617371
埼玉県,さいたま市,01-01,西区塚本町2丁目152番地,塚本公園 北側フェンス,35.876435,139.5649208
埼玉県,さいたま市,01-01,西区大字二ツ宮589番地1,市立馬宮中学校 西側正門横フェンス,35.8976687,139.5800166
埼玉県,さいたま市,01-01,西区大字西遊馬307番地1,西消防署西遊馬出張所 北東側フェンス,35.9035913,139.5756534
埼玉県,さいたま市,01-01,西区大字西遊馬533番地1,馬宮コミュニティセンター 正面入口脇,35.9051776,139.5730077
埼玉県,さいたま市,01-01,西区大字西遊馬189番地1,市立馬宮東小学校 南側フェンス,35.9032744,139.5718382
埼玉県,さいたま市,01-01,西区大字西遊馬119番地,市立馬宮保育園 東側フェンス,35.9015506,139.574115
埼玉県,さいたま市,01-01,西区大字二ツ宮466番地,二ツ宮氷川神社 向かい側水路フェンス,35.8966308,139.5806366
埼玉県,さいたま市,01-01,西区大字二ツ宮43番地2,二ツ宮住宅第１公園 西側フェンス,35.8920718,139.5785763
埼玉県,さいたま市,01-01,西区大字中野林173番地2,植水公民館・植水支所 東側フェンス,35.8939158,139.5917003
埼玉県,さいたま市,01-01,西区大字飯田341番地1,観音堂西側ブロック塀,35.8967414,139.584057
埼玉県,さいたま市,01-01,西区大字中野林225番地1,市立植水小学校 北側フェンス,35.8935578,139.593624
埼玉県,さいたま市,01-01,西区大字中野林225番地1,市立植水小学校 西側正門横フェンス,35.8935578,139.593624
埼玉県,さいたま市,01-01,西区大字中野林463番地2,大宮みどりが丘幼稚園南側(向い側） フェンス,35.8937625,139.5867796
埼玉県,さいたま市,01-01,西区大字中野林790番地12,二ツ宮住宅中央公園 東側フェンス,35.8903523,139.579801
埼玉県,さいたま市,01-01,西区大字中野林880番地1,二ツ宮住宅第２公園 西側フェンス,35.8938243,139.5853012
埼玉県,さいたま市,01-01,西区大字島根602番地,住宅 道路北側フェンス,35.8831969,139.5929456
埼玉県,さいたま市,01-01,西区大字植田谷本516番地17,前通北公園 南西側フェンス,35.893425,139.5957706
埼玉県,さいたま市,01-01,西区大字植田谷本605番地,住宅 西向側フェンス,35.8888002,139.595494
埼玉県,さいたま市,01-01,西区大字植田谷本137番地1,加茂川団地１６号棟東側フェンス,35.8898365,139.5966778
埼玉県,さいたま市,01-01,西区大字植田谷本137番地1,加茂川団地２１号棟西側 調整池フェンス,35.8898365,139.5966778
埼玉県,さいたま市,01-01,西区大字植田谷本137番地1,加茂川団地２号棟 南側フェンス,35.8898365,139.5966778
埼玉県,さいたま市,01-01,西区大字島根458番地,住宅 東側フェンス,35.8831969,139.5929456
